[
  {
    "id": 74,
    "name": "단양 패러글라이딩",
    "action": "update",
    "note": null,
    "before": {
      "addr": "충청북도 단양군 단성면 도담리 100",
      "lat": 36.99423128802485,
      "lng": 128.394885661744
    },
    "after": {
      "addr": "충청북도 단양군 가곡면 사평리 246-33",
      "lat": 36.9946009,
      "lng": 128.3945163
    },
    "geocode_label": "충북 단양군 가곡면 사평리 246-33",
    "geocode_source": "search/address.json",
    "reverse_verify": "충북 단양군 가곡면 사평리 246-33"
  },
  {
    "id": 75,
    "name": "양평 패러글라이딩",
    "action": "update",
    "note": null,
    "before": {
      "addr": "경기도 양평군 양평읍 양평리 200",
      "lat": 37.559378811800485,
      "lng": 127.46370335370872
    },
    "after": {
      "addr": "경기도 양평군 옥천면 신촌길 80",
      "lat": 37.552346,
      "lng": 127.4600201
    },
    "geocode_label": "경기 양평군 옥천면 신촌길 80",
    "geocode_source": "search/address.json",
    "reverse_verify": "경기도 양평군 옥천면 신촌길 80 | 경기 양평군 옥천면 신복리 335-7"
  },
  {
    "id": 76,
    "name": "포항 패러글라이딩",
    "action": "update",
    "note": null,
    "before": {
      "addr": "경상북도 포항시 남구 구룡포읍 구룡포리 300",
      "lat": 36.1313809691274,
      "lng": 129.398680845747
    },
    "after": {
      "addr": "경상북도 포항시 북구 흥해읍 해안로 1366-42",
      "lat": 36.1313797,
      "lng": 129.3986827
    },
    "geocode_label": "경북 포항시 북구 흥해읍 해안로 1366-42",
    "geocode_source": "search/address.json",
    "reverse_verify": "경상북도 포항시 북구 흥해읍 해안로 1366-42 | 경북 포항시 북구 흥해읍 칠포리 197-24"
  },
  {
    "id": 1,
    "name": "여수 국가대표 패러글라이딩",
    "action": "update",
    "note": null,
    "before": {
      "addr": "전라남도 여수시 돌산읍 돌산리 1700",
      "lat": 34.7744236029375,
      "lng": 127.744623371049
    },
    "after": {
      "addr": "전라남도 여수시 망양로 225",
      "lat": 34.7744346,
      "lng": 127.744623
    },
    "geocode_label": "전남광주통합특별시 여수시 망양로 225",
    "geocode_source": "search/address.json",
    "reverse_verify": "전남광주통합특별시 여수시 망양로 225 | 전남광주통합특별시 여수시 만흥동 95-1"
  },
  {
    "id": 79,
    "name": "남해 패러글라이딩",
    "action": "update",
    "note": null,
    "before": {
      "addr": "경상남도 남해군 남해읍 남해리 600",
      "lat": 34.88153130764608,
      "lng": 127.98041259183108
    },
    "after": {
      "addr": "경상남도 남해군 서면 남서대로2197번길 64-20",
      "lat": 34.8490406,
      "lng": 127.8120497
    },
    "geocode_label": "경남 남해군 서면 남서대로2197번길 64-20",
    "geocode_source": "search/address.json",
    "reverse_verify": "경상남도 남해군 서면 남서대로2197번길 64-20 | 경남 남해군 서면 남상리 1473"
  },
  {
    "id": 81,
    "name": "영월 패러글라이딩",
    "action": "update",
    "note": "별마로천문대 인근 - 상세 지번 보류, 읍 단위만 반영",
    "before": {
      "addr": "강원특별자치도 영월군 영월읍 영월리 800",
      "lat": 37.1799756947084,
      "lng": 128.468351363027
    },
    "after": {
      "addr": "강원특별자치도 영월군 영월읍",
      "lat": 37.1874352,
      "lng": 128.4660679
    },
    "geocode_label": "강원특별자치도 영월군 영월읍",
    "geocode_source": "search/address.json",
    "reverse_verify": "강원특별자치도 영월군 영월읍 단종로 48-8 | 영월읍행정복지센터 | 강원특별자치도 영월군 영월읍 영흥리 1017-13"
  },
  {
    "id": 87,
    "name": "순천 벌교 패러글라이딩",
    "action": "keep",
    "note": "기존 주소/좌표 유지 (양호 판정)",
    "before": {
      "addr": "전라남도 순천시 벌교읍 벌교리 1400",
      "lat": 34.8869,
      "lng": 127.3997
    },
    "after": {
      "addr": "전라남도 순천시 벌교읍 벌교리 1400",
      "lat": 34.8869,
      "lng": 127.3997
    },
    "reverse_verify": "전남광주통합특별시 순천시 별량면 대룡리 산 135-1"
  }
]