[
  {
    "id": 59,
    "name": "창원 짚라인",
    "note": "진해해양공원 내",
    "before": {
      "addr": "경상남도 창원시 의창구 팔용동 100",
      "lat": 35.2545812342549,
      "lng": 128.61280101396
    },
    "after": {
      "addr": "경상남도 창원시 진해구 명동로 62",
      "lat": 35.0921262,
      "lng": 128.7191851
    },
    "geocode_label": "경남 창원시 진해구 명동로 62",
    "geocode_source": "search/address.json",
    "reverse_verify": "경상남도 창원시 진해구 명동로 62 | 진해해양공원 | 경남 창원시 진해구 명동 656"
  },
  {
    "id": 60,
    "name": "문경 짚라인",
    "note": null,
    "before": {
      "addr": "경상북도 문경시 문경읍 농암리 123",
      "lat": 36.6227922126102,
      "lng": 128.136714390253
    },
    "after": {
      "addr": "경상북도 문경시 불정길 174",
      "lat": 36.6228569,
      "lng": 128.1367808
    },
    "geocode_label": "경북 문경시 불정길 174",
    "geocode_source": "search/address.json",
    "reverse_verify": "경상북도 문경시 불정길 174 | 경북 문경시 불정동 336-3"
  },
  {
    "id": 61,
    "name": "충주 짚라인",
    "note": "문성자연휴양림",
    "before": {
      "addr": "충청북도 충주시 동량면 봉황리 456",
      "lat": 37.026820396579765,
      "lng": 127.75332506383847
    },
    "after": {
      "addr": "충청북도 충주시 노은면 우성1길 191",
      "lat": 37.028326,
      "lng": 127.7525217
    },
    "geocode_label": "충북 충주시 노은면 우성1길 191",
    "geocode_source": "search/address.json",
    "reverse_verify": "충청북도 충주시 노은면 우성1길 191 | 문성자연휴양림 | 충북 충주시 노은면 문성리 산 67-1"
  },
  {
    "id": 65,
    "name": "영천 짚라인",
    "note": "보현산댐 짚와이어",
    "before": {
      "addr": "경상북도 영천시 청통면 오미리 789",
      "lat": 36.1437219756597,
      "lng": 128.964743842108
    },
    "after": {
      "addr": "경상북도 영천시 화북면 배나무정길 196",
      "lat": 36.1439272,
      "lng": 128.9645019
    },
    "geocode_label": "경북 영천시 화북면 배나무정길 196",
    "geocode_source": "search/address.json",
    "reverse_verify": "경상북도 영천시 화북면 배나무정길 196 | 보현산짚와이어 | 경북 영천시 화북면 입석리 171"
  }
]